[{"County":"Chilton County","Long":"-86.543753","Name":"Verbena","Slug":"verbena","Lat":"32.759565"},{"County":"Colbert County","Long":"-87.972445","Name":"Cherokee","Slug":"cherokee","Lat":"34.744188"},{"County":"Randolph County","Long":"-85.473737","Name":"Wedowee","Slug":"wedowee","Lat":"33.301854"},{"County":"Tuscaloosa County","Long":"-87.735688","Name":"Fosters","Slug":"fosters","Lat":"33.135859"},{"County":"Geneva County","Long":"-85.793333","Name":"Bellwood","Slug":"bellwood","Lat":"31.173056"},{"County":"Marshall County","Long":"-86.489638","Name":"Arab","Slug":"arab","Lat":"34.328339"},{"County":"Monroe County","Long":"-87.340993","Name":"Monroeville","Slug":"monroeville","Lat":"31.51533"},{"County":"Limestone County","Long":"-87.143396","Name":"Lester","Slug":"lester","Lat":"34.918364"},{"County":"Calhoun County","Long":"-85.703611","Name":"Choccolocco","Slug":"choccolocco","Lat":"33.659167"},{"County":"Baldwin County","Long":"-87.793333","Name":"Stapleton","Slug":"stapleton","Lat":"30.7425"},{"County":"Baldwin County","Long":"-87.628374","Name":"Perdido","Slug":"perdido","Lat":"30.98058"},{"County":"Butler County","Long":"-86.733965","Name":"Georgiana","Slug":"georgiana","Lat":"31.628662"},{"County":"Tallapoosa County","Long":"-85.848662","Name":"Jacksons Gap","Slug":"jacksons-gap","Lat":"32.879698"},{"County":"Marshall County","Long":"-86.305463","Name":"Guntersville","Slug":"guntersville","Lat":"34.32193"},{"County":"Lamar County","Long":"-88.200003","Name":"Millport","Slug":"millport","Lat":"33.54013"},{"County":"Tuscaloosa County","Long":"-87.744984","Name":"Ralph","Slug":"ralph","Lat":"33.062868"},{"County":"Covington County","Long":"-86.490468","Name":"Andalusia","Slug":"andalusia","Lat":"31.297142"},{"County":"Walker County","Long":"-87.044545","Name":"Sumiton","Slug":"sumiton","Lat":"33.768005"},{"County":"Elmore County","Long":"-85.948611","Name":"Kent","Slug":"kent","Lat":"32.618889"},{"County":"Houston County","Long":"-85.375665","Name":"Cottonwood","Slug":"cottonwood","Lat":"31.098934"},{"County":"Morgan County","Long":"-86.98868","Name":"Decatur","Slug":"decatur","Lat":"34.589599"},{"County":"Mobile County","Long":"-88.131126","Name":"Chunchula","Slug":"chunchula","Lat":"30.991178"},{"County":"Monroe County","Long":"-87.341389","Name":"Excel","Slug":"excel","Lat":"31.427778"},{"County":"Monroe County","Long":"-87.416184","Name":"Vredenburgh","Slug":"vredenburgh","Lat":"31.73443"},{"County":"Shelby County","Long":"-86.429441","Name":"Harpersville","Slug":"harpersville","Lat":"33.36746"},{"County":"Marengo County","Long":"-87.745356","Name":"Dixons Mills","Slug":"dixons-mills","Lat":"32.067209"},{"County":"Geneva County","Long":"-85.884748","Name":"Geneva","Slug":"geneva","Lat":"31.041445"},{"County":"Jackson County","Long":"-86.233627","Name":"Hollytree","Slug":"hollytree","Lat":"34.798979"},{"County":"Talladega County","Long":"-86.113352","Name":"Talladega","Slug":"talladega","Lat":"33.435445"},{"County":"Sumter County","Long":"-88.305747","Name":"Emelle","Slug":"emelle","Lat":"32.754963"},{"County":"Wilcox County","Long":"-87.004667","Name":"Pine Apple","Slug":"pine-apple","Lat":"31.926522"},{"County":"Autauga County","Long":"-86.889266","Name":"Jones","Slug":"jones","Lat":"32.608515"},{"County":"Mobile County","Long":"-88.254167","Name":"Saint Elmo","Slug":"saint-elmo","Lat":"30.503333"},{"County":"Calhoun County","Long":"-85.892447","Name":"Alexandria","Slug":"alexandria","Lat":"33.780785"},{"County":"Baldwin County","Long":"-87.863323","Name":"Stockton","Slug":"stockton","Lat":"31.01293"},{"County":"Jackson County","Long":"-85.727681","Name":"Bridgeport","Slug":"bridgeport","Lat":"34.944638"},{"County":"Mobile County","Long":"-88.239563","Name":"Irvington","Slug":"irvington","Lat":"30.480241"},{"County":"Tuscaloosa County","Long":"-87.309025","Name":"Brookwood","Slug":"brookwood","Lat":"33.277523"},{"County":"Houston County","Long":"-85.253488","Name":"Ashford","Slug":"ashford","Lat":"31.1888"},{"County":"Geneva County","Long":"-86.067416","Name":"Samson","Slug":"samson","Lat":"31.104918"},{"County":"Mobile County","Long":"-88.168276","Name":"Coden","Slug":"coden","Lat":"30.418834"},{"County":"Mobile County","Long":"-88.093387","Name":"Saraland","Slug":"saraland","Lat":"30.833197"},{"County":"De Kalb County","Long":"-86.040023","Name":"Groveoak","Slug":"groveoak","Lat":"34.435874"},{"County":"Marion County","Long":"-87.686083","Name":"Bear Creek","Slug":"bear-creek","Lat":"34.213469"},{"County":"Tallapoosa County","Long":"-85.770395","Name":"Dadeville","Slug":"dadeville","Lat":"32.82239"},{"County":"Jefferson County","Long":"-86.933611","Name":"Cardiff","Slug":"cardiff","Lat":"33.645556"},{"County":"Cullman County","Long":"-86.784844","Name":"Hanceville","Slug":"hanceville","Lat":"34.051569"},{"County":"Shelby County","Long":"-86.616145","Name":"Columbiana","Slug":"columbiana","Lat":"33.176964"},{"County":"Geneva County","Long":"-85.522327","Name":"Malvern","Slug":"malvern","Lat":"31.157528"},{"County":"Lauderdale County","Long":"-87.771389","Name":"Cloverdale","Slug":"cloverdale","Lat":"34.938611"},{"County":"Randolph County","Long":"-85.353768","Name":"Woodland","Slug":"woodland","Lat":"33.355453"},{"County":"Clarke County","Long":"-87.656929","Name":"Dickinson","Slug":"dickinson","Lat":"31.717167"},{"County":"Choctaw County","Long":"-88.206391","Name":"Butler","Slug":"butler","Lat":"32.082906"},{"County":"Talladega County","Long":"-86.208934","Name":"Alpine","Slug":"alpine","Lat":"33.331165"},{"County":"Clarke County","Long":"-87.708065","Name":"Fulton","Slug":"fulton","Lat":"31.790947"},{"County":"Shelby County","Long":"-86.812861","Name":"Alabaster","Slug":"alabaster","Lat":"33.236868"},{"County":"Morgan County","Long":"-86.704427","Name":"Eva","Slug":"eva","Lat":"34.347778"},{"County":"Escambia County","Long":"-87.487347","Name":"Atmore","Slug":"atmore","Lat":"31.057245"},{"County":"Cleburne County","Long":"-85.378907","Name":"Muscadine","Slug":"muscadine","Lat":"33.752913"},{"County":"Dale County","Long":"-85.599229","Name":"Newton","Slug":"newton","Lat":"31.331064"},{"County":"Lee County","Long":"-85.215791","Name":"Cusseta","Slug":"cusseta","Lat":"32.803194"},{"County":"Saint Clair County","Long":"-86.1619","Name":"Ragland","Slug":"ragland","Lat":"33.736677"},{"County":"Jackson County","Long":"-86.22961","Name":"Woodville","Slug":"woodville","Lat":"34.668927"},{"County":"Bullock County","Long":"-85.531523","Name":"Midway","Slug":"midway","Lat":"32.09552"},{"County":"Sumter County","Long":"-88.268889","Name":"Panola","Slug":"panola","Lat":"32.950556"},{"County":"Jefferson County","Long":"-86.948221","Name":"Graysville","Slug":"graysville","Lat":"33.63356"},{"County":"De Kalb County","Long":"-85.712394","Name":"Fort Payne","Slug":"fort-payne","Lat":"34.436792"},{"County":"Shelby County","Long":"-86.813786","Name":"Helena","Slug":"helena","Lat":"33.316978"},{"County":"Washington County","Long":"-88.052094","Name":"Saint Stephens","Slug":"saint-stephens","Lat":"31.533028"},{"County":"Jefferson County","Long":"-86.8014","Name":"Birmingham","Slug":"birmingham","Lat":"33.519"},{"County":"Lauderdale County","Long":"-87.962412","Name":"Waterloo","Slug":"waterloo","Lat":"34.93568"},{"County":"Bibb County","Long":"-86.951672","Name":"Brierfield","Slug":"brierfield","Lat":"33.042747"},{"County":"Bibb County","Long":"-87.11924","Name":"Centreville","Slug":"centreville","Lat":"32.950324"},{"County":"De Kalb County","Long":"-85.627208","Name":"Valley Head","Slug":"valley-head","Lat":"34.5697"},{"County":"Monroe County","Long":"-87.381744","Name":"Frisco City","Slug":"frisco-city","Lat":"31.423478"},{"County":"Talladega County","Long":"-85.936322","Name":"Munford","Slug":"munford","Lat":"33.540987"},{"County":"Randolph County","Long":"-85.357854","Name":"Roanoke","Slug":"roanoke","Lat":"33.156443"},{"County":"Clarke County","Long":"-87.867192","Name":"Jackson","Slug":"jackson","Lat":"31.513098"},{"County":"Monroe County","Long":"-87.441237","Name":"Franklin","Slug":"franklin","Lat":"31.723815"},{"County":"Macon County","Long":"-85.705278","Name":"Tuskegee Institute","Slug":"tuskegee-institute","Lat":"32.430278"},{"County":"Shelby County","Long":"-86.535833","Name":"Westover","Slug":"westover","Lat":"33.349444"},{"County":"Sumter County","Long":"-88.271558","Name":"Gainesville","Slug":"gainesville","Lat":"32.908364"},{"County":"Coosa County","Long":"-86.078149","Name":"Goodwater","Slug":"goodwater","Lat":"33.074642"},{"County":"Dale County","Long":"-85.707716","Name":"Ariton","Slug":"ariton","Lat":"31.582996"},{"County":"Calhoun County","Long":"-85.77518","Name":"Jacksonville","Slug":"jacksonville","Lat":"33.830966"},{"County":"Jefferson County","Long":"-86.947547","Name":"Bessemer","Slug":"bessemer","Lat":"33.409002"},{"County":"Morgan County","Long":"-87.09127","Name":"Trinity","Slug":"trinity","Lat":"34.591771"},{"County":"Houston County","Long":"-85.145488","Name":"Columbia","Slug":"columbia","Lat":"31.335235"},{"County":"Barbour County","Long":"-85.165605","Name":"Eufaula","Slug":"eufaula","Lat":"31.905063"},{"County":"Henry County","Long":"-85.328741","Name":"Newville","Slug":"newville","Lat":"31.440295"},{"County":"Pike County","Long":"-86.104851","Name":"Goshen","Slug":"goshen","Lat":"31.82497"},{"County":"Jefferson County","Long":"-87.043998","Name":"Mulga","Slug":"mulga","Lat":"33.540696"},{"County":"Houston County","Long":"-85.123412","Name":"Gordon","Slug":"gordon","Lat":"31.10019"},{"County":"Tuscaloosa County","Long":"-87.340833","Name":"Coaling","Slug":"coaling","Lat":"33.158889"},{"County":"Bullock County","Long":"-85.74773","Name":"Perote","Slug":"perote","Lat":"32.003459"},{"County":"Marengo County","Long":"-87.698542","Name":"Gallion","Slug":"gallion","Lat":"32.529771"},{"County":"Clay County","Long":"-85.828976","Name":"Ashland","Slug":"ashland","Lat":"33.247363"},{"County":"Jackson County","Long":"-85.803044","Name":"Pisgah","Slug":"pisgah","Lat":"34.688601"},{"County":"Wilcox County","Long":"-87.559691","Name":"Arlington","Slug":"arlington","Lat":"32.066784"},{"County":"Winston County","Long":"-87.601944","Name":"Natural Bridge","Slug":"natural-bridge","Lat":"34.093333"},{"County":"Lee County","Long":"-85.100027","Name":"Smiths Station","Slug":"smiths-station","Lat":"32.520072"},{"County":"Saint Clair County","Long":"-86.228929","Name":"Steele","Slug":"steele","Lat":"33.941679"},{"County":"Baldwin County","Long":"-87.883546","Name":"Fairhope","Slug":"fairhope","Lat":"30.50116"},{"County":"Winston County","Long":"-87.182761","Name":"Arley","Slug":"arley","Lat":"34.063234"},{"County":"Franklin County","Long":"-88.112914","Name":"Red Bay","Slug":"red-bay","Lat":"34.451259"},{"County":"Sumter County","Long":"-88.133611","Name":"Bellamy","Slug":"bellamy","Lat":"32.448889"},{"County":"Marshall County","Long":"-86.317318","Name":"Horton","Slug":"horton","Lat":"34.190033"},{"County":"Elmore County","Long":"-86.188039","Name":"Wetumpka","Slug":"wetumpka","Lat":"32.54509"},{"County":"Limestone County","Long":"-86.879167","Name":"Belle Mina","Slug":"belle-mina","Lat":"34.656667"},{"County":"Russell County","Long":"-85.005278","Name":"Holy Trinity","Slug":"holy-trinity","Lat":"32.222222"},{"County":"Crenshaw County","Long":"-86.297111","Name":"Highland Home","Slug":"highland-home","Lat":"31.928292"},{"County":"Coffee County","Long":"-86.077728","Name":"Elba","Slug":"elba","Lat":"31.41373"},{"County":"Choctaw County","Long":"-88.326514","Name":"Gilbertown","Slug":"gilbertown","Lat":"31.866602"},{"County":"Greene County","Long":"-87.881676","Name":"Forkland","Slug":"forkland","Lat":"32.644661"},{"County":"Walker County","Long":"-87.619397","Name":"Eldridge","Slug":"eldridge","Lat":"33.931546"},{"County":"Talladega County","Long":"-86.337622","Name":"Childersburg","Slug":"childersburg","Lat":"33.266928"},{"County":"Lawrence County","Long":"-87.180379","Name":"Hillsboro","Slug":"hillsboro","Lat":"34.64763"},{"County":"Wilcox County","Long":"-87.570833","Name":"Annemanie","Slug":"annemanie","Lat":"32.052778"},{"County":"Macon County","Long":"-85.883837","Name":"Hardaway","Slug":"hardaway","Lat":"32.312939"},{"County":"Walker County","Long":"-87.18406","Name":"Cordova","Slug":"cordova","Lat":"33.768033"},{"County":"De Kalb County","Long":"-85.727381","Name":"Henagar","Slug":"henagar","Lat":"34.618604"},{"County":"Covington County","Long":"-86.56119","Name":"Wing","Slug":"wing","Lat":"31.148127"},{"County":"Lowndes County","Long":"-86.488013","Name":"Letohatchee","Slug":"letohatchee","Lat":"32.086199"},{"County":"Madison County","Long":"-86.394028","Name":"Gurley","Slug":"gurley","Lat":"34.713964"},{"County":"Walker County","Long":"-87.368574","Name":"Oakman","Slug":"oakman","Lat":"33.700174"},{"County":"Sumter County","Long":"-88.361083","Name":"Cuba","Slug":"cuba","Lat":"32.410973"},{"County":"Russell County","Long":"-85.073889","Name":"Cottonton","Slug":"cottonton","Lat":"32.146667"},{"County":"Marengo County","Long":"-87.795358","Name":"Linden","Slug":"linden","Lat":"32.305343"},{"County":"Talladega County","Long":"-86.271257","Name":"Sylacauga","Slug":"sylacauga","Lat":"33.171675"},{"County":"Conecuh County","Long":"-86.771111","Name":"Brooklyn","Slug":"brooklyn","Lat":"31.2625"},{"County":"Greene County","Long":"-87.791855","Name":"Knoxville","Slug":"knoxville","Lat":"32.982423"},{"County":"Jackson County","Long":"-86.291264","Name":"Trenton","Slug":"trenton","Lat":"34.740065"},{"County":"Colbert County","Long":"-87.697057","Name":"Sheffield","Slug":"sheffield","Lat":"34.757829"},{"County":"Shelby County","Long":"-86.529894","Name":"Wilsonville","Slug":"wilsonville","Lat":"33.229255"},{"County":"Jefferson County","Long":"-86.87171","Name":"Mount Olive","Slug":"mount-olive","Lat":"33.67678"},{"County":"Lauderdale County","Long":"-87.655985","Name":"Florence","Slug":"florence","Lat":"34.830547"},{"County":"Morgan County","Long":"-86.612869","Name":"Laceys Spring","Slug":"laceys-spring","Lat":"34.499647"},{"County":"Jefferson County","Long":"-86.574824","Name":"Leeds","Slug":"leeds","Lat":"33.528333"},{"County":"De Kalb County","Long":"-85.577728","Name":"Mentone","Slug":"mentone","Lat":"34.587236"},{"County":"Chilton County","Long":"-86.871704","Name":"Maplesville","Slug":"maplesville","Lat":"32.804507"},{"County":"Monroe County","Long":"-87.259984","Name":"Peterman","Slug":"peterman","Lat":"31.589953"},{"County":"Mobile County","Long":"-88.254949","Name":"Citronelle","Slug":"citronelle","Lat":"31.042533"},{"County":"Franklin County","Long":"-87.712149","Name":"Spruce Pine","Slug":"spruce-pine","Lat":"34.384796"},{"County":"Dallas County","Long":"-86.947531","Name":"Plantersville","Slug":"plantersville","Lat":"32.617608"},{"County":"Franklin County","Long":"-87.715431","Name":"Phil Campbell","Slug":"phil-campbell","Lat":"34.347018"},{"County":"Bibb County","Long":"-86.956708","Name":"Lawley","Slug":"lawley","Lat":"32.864558"},{"County":"De Kalb County","Long":"-85.928849","Name":"Fyffe","Slug":"fyffe","Lat":"34.437284"},{"County":"Marion County","Long":"-87.90238","Name":"Guin","Slug":"guin","Lat":"33.967624"},{"County":"Covington County","Long":"-86.257105","Name":"Opp","Slug":"opp","Lat":"31.279861"},{"County":"Pickens County","Long":"-87.900504","Name":"Gordo","Slug":"gordo","Lat":"33.346917"},{"County":"Washington County","Long":"-87.968672","Name":"Leroy","Slug":"leroy","Lat":"31.491021"},{"County":"Tuscaloosa County","Long":"-87.494977","Name":"Duncanville","Slug":"duncanville","Lat":"33.082815"},{"County":"Russell County","Long":"-85.167733","Name":"Seale","Slug":"seale","Lat":"32.305339"},{"County":"Jefferson County","Long":"-86.918262","Name":"Fairfield","Slug":"fairfield","Lat":"33.473494"},{"County":"Bibb County","Long":"-87.211387","Name":"Brent","Slug":"brent","Lat":"32.93567"},{"County":"Madison County","Long":"-86.571944","Name":"Normal","Slug":"normal","Lat":"34.788889"},{"County":"Shelby County","Long":"-86.501278","Name":"Vandiver","Slug":"vandiver","Lat":"33.480704"},{"County":"Dallas County","Long":"-86.92497","Name":"Minter","Slug":"minter","Lat":"32.095387"},{"County":"De Kalb County","Long":"-86.040393","Name":"Geraldine","Slug":"geraldine","Lat":"34.343864"},{"County":"Tuscaloosa County","Long":"-87.562666","Name":"Tuscaloosa","Slug":"tuscaloosa","Lat":"33.196891"},{"County":"Montgomery County","Long":"-86.09589","Name":"Pike Road","Slug":"pike-road","Lat":"32.335705"},{"County":"Randolph County","Long":"-85.551344","Name":"Wadley","Slug":"wadley","Lat":"33.149192"},{"County":"Fayette County","Long":"-87.834647","Name":"Fayette","Slug":"fayette","Lat":"33.697397"},{"County":"Lee County","Long":"-85.514372","Name":"Waverly","Slug":"waverly","Lat":"32.763167"},{"County":"Randolph County","Long":"-85.334034","Name":"Graham","Slug":"graham","Lat":"33.462976"},{"County":"Baldwin County","Long":"-87.901667","Name":"Montrose","Slug":"montrose","Lat":"30.565556"},{"County":"Crenshaw County","Long":"-86.348464","Name":"Rutledge","Slug":"rutledge","Lat":"31.755867"},{"County":"Etowah County","Long":"-86.096717","Name":"Attalla","Slug":"attalla","Lat":"34.029597"},{"County":"Geneva County","Long":"-85.918224","Name":"Coffee Springs","Slug":"coffee-springs","Lat":"31.138758"},{"County":"Madison County","Long":"-86.699951","Name":"Toney","Slug":"toney","Lat":"34.911644"},{"County":"Jefferson County","Long":"-86.743414","Name":"Trafford","Slug":"trafford","Lat":"33.819038"},{"County":"Covington County","Long":"-86.419836","Name":"Gantt","Slug":"gantt","Lat":"31.416909"},{"County":"Lawrence County","Long":"-87.426195","Name":"Town Creek","Slug":"town-creek","Lat":"34.649138"},{"County":"Russell County","Long":"-85.131248","Name":"Pittsview","Slug":"pittsview","Lat":"32.173346"},{"County":"Escambia County","Long":"-87.266365","Name":"Flomaton","Slug":"flomaton","Lat":"31.040233"},{"County":"Winston County","Long":"-87.539814","Name":"Lynn","Slug":"lynn","Lat":"34.052984"},{"County":"Calhoun County","Long":"-85.838152","Name":"Anniston","Slug":"anniston","Lat":"33.653896"},{"County":"Crenshaw County","Long":"-86.207778","Name":"Petrey","Slug":"petrey","Lat":"31.848611"},{"County":"Jefferson County","Long":"-86.599722","Name":"Clay","Slug":"clay","Lat":"33.7025"},{"County":"Saint Clair County","Long":"-86.51557","Name":"Moody","Slug":"moody","Lat":"33.584132"},{"County":"Madison County","Long":"-86.567318","Name":"Huntsville","Slug":"huntsville","Lat":"34.726866"},{"County":"Winston County","Long":"-87.397431","Name":"Double Springs","Slug":"double-springs","Lat":"34.138682"},{"County":"Colbert County","Long":"-87.522133","Name":"Leighton","Slug":"leighton","Lat":"34.710982"},{"County":"Jackson County","Long":"-85.632445","Name":"Bryant","Slug":"bryant","Lat":"34.945026"},{"County":"Chilton County","Long":"-86.718052","Name":"Jemison","Slug":"jemison","Lat":"32.980539"},{"County":"Madison County","Long":"-86.448742","Name":"New Market","Slug":"new-market","Lat":"34.899991"},{"County":"Conecuh County","Long":"-87.172039","Name":"Repton","Slug":"repton","Lat":"31.425569"},{"County":"Houston County","Long":"-85.254385","Name":"Webb","Slug":"webb","Lat":"31.265618"},{"County":"Etowah County","Long":"-86.010279","Name":"Gadsden","Slug":"gadsden","Lat":"33.997248"},{"County":"Clarke County","Long":"-87.759842","Name":"Thomasville","Slug":"thomasville","Lat":"31.906728"},{"County":"Pike County","Long":"-85.799844","Name":"Banks","Slug":"banks","Lat":"31.836792"},{"County":"Montgomery County","Long":"-86.129246","Name":"Grady","Slug":"grady","Lat":"32.019397"},{"County":"Lee County","Long":"-85.0911","Name":"Phenix City","Slug":"phenix-city","Lat":"32.484"},{"County":"Cleburne County","Long":"-85.43814","Name":"Fruithurst","Slug":"fruithurst","Lat":"33.771732"},{"County":"Butler County","Long":"-86.622919","Name":"Greenville","Slug":"greenville","Lat":"31.810036"},{"County":"Morgan County","Long":"-86.678","Name":"Valhermoso Springs","Slug":"valhermoso-springs","Lat":"34.538145"},{"County":"Elmore County","Long":"-86.316134","Name":"Elmore","Slug":"elmore","Lat":"32.545378"},{"County":"Winston County","Long":"-87.26183","Name":"Houston","Slug":"houston","Lat":"34.118042"},{"County":"Monroe County","Long":"-87.171912","Name":"Beatrice","Slug":"beatrice","Lat":"31.727324"},{"County":"Jefferson County","Long":"-86.974444","Name":"Sayre","Slug":"sayre","Lat":"33.712222"},{"County":"Clay County","Long":"-85.969001","Name":"Millerville","Slug":"millerville","Lat":"33.158959"},{"County":"Washington County","Long":"-88.070519","Name":"Wagarville","Slug":"wagarville","Lat":"31.410205"},{"County":"Elmore County","Long":"-86.331667","Name":"Coosada","Slug":"coosada","Lat":"32.496667"},{"County":"Wilcox County","Long":"-87.0825","Name":"Oak Hill","Slug":"oak-hill","Lat":"31.925"},{"County":"Tuscaloosa County","Long":"-87.198056","Name":"Abernant","Slug":"abernant","Lat":"33.290278"},{"County":"Tuscaloosa County","Long":"-87.807202","Name":"Echola","Slug":"echola","Lat":"33.316559"},{"County":"Baldwin County","Long":"-87.474452","Name":"Lillian","Slug":"lillian","Lat":"30.39724"},{"County":"De Kalb County","Long":"-85.929161","Name":"Dawson","Slug":"dawson","Lat":"34.356838"},{"County":"Jackson County","Long":"-86.051336","Name":"Scottsboro","Slug":"scottsboro","Lat":"34.67227"},{"County":"Talladega County","Long":"-86.111152","Name":"Lincoln","Slug":"lincoln","Lat":"33.605913"},{"County":"Geneva County","Long":"-85.910897","Name":"Chancellor","Slug":"chancellor","Lat":"31.173379"},{"County":"Dale County","Long":"-85.730473","Name":"Daleville","Slug":"daleville","Lat":"31.281091"},{"County":"Washington County","Long":"-88.376597","Name":"Fruitdale","Slug":"fruitdale","Lat":"31.348843"},{"County":"Marion County","Long":"-87.756315","Name":"Brilliant","Slug":"brilliant","Lat":"34.037702"},{"County":"Pickens County","Long":"-88.166689","Name":"Aliceville","Slug":"aliceville","Lat":"33.122813"},{"County":"Wilcox County","Long":"-87.342503","Name":"Alberta","Slug":"alberta","Lat":"32.144889"},{"County":"Mobile County","Long":"-88.333196","Name":"Wilmer","Slug":"wilmer","Lat":"30.813745"},{"County":"Lauderdale County","Long":"-87.272327","Name":"Anderson","Slug":"anderson","Lat":"34.951777"},{"County":"Jefferson County","Long":"-86.808417","Name":"Kimberly","Slug":"kimberly","Lat":"33.768355"},{"County":"Butler County","Long":"-86.786377","Name":"Forest Home","Slug":"forest-home","Lat":"31.85318"},{"County":"Elmore County","Long":"-85.89781","Name":"Tallassee","Slug":"tallassee","Lat":"32.550997"},{"County":"Lauderdale County","Long":"-87.323671","Name":"Rogersville","Slug":"rogersville","Lat":"34.849544"},{"County":"Saint Clair County","Long":"-86.280026","Name":"Cropwell","Slug":"cropwell","Lat":"33.506448"},{"County":"Blount County","Long":"-86.568628","Name":"Blountsville","Slug":"blountsville","Lat":"34.092937"},{"County":"Cullman County","Long":"-86.912512","Name":"Vinemont","Slug":"vinemont","Lat":"34.262121"},{"County":"Hale County","Long":"-87.561472","Name":"Newbern","Slug":"newbern","Lat":"32.551465"},{"County":"Baldwin County","Long":"-87.699183","Name":"Summerdale","Slug":"summerdale","Lat":"30.475225"},{"County":"Dale County","Long":"-85.553056","Name":"Pinckard","Slug":"pinckard","Lat":"31.311389"},{"County":"Barbour County","Long":"-85.590419","Name":"Clio","Slug":"clio","Lat":"31.68521"},{"County":"Butler County","Long":"-86.735615","Name":"Mc Kenzie","Slug":"mc-kenzie","Lat":"31.54495"},{"County":"Lowndes County","Long":"-86.609868","Name":"Lowndesboro","Slug":"lowndesboro","Lat":"32.300292"},{"County":"Jefferson County","Long":"-87.167455","Name":"Adger","Slug":"adger","Lat":"33.434277"},{"County":"Autauga County","Long":"-86.42997","Name":"Prattville","Slug":"prattville","Lat":"32.478695"},{"County":"Dallas County","Long":"-86.991959","Name":"Sardis","Slug":"sardis","Lat":"32.284358"},{"County":"Marshall County","Long":"-86.206447","Name":"Albertville","Slug":"albertville","Lat":"34.273859"},{"County":"Saint Clair County","Long":"-86.343151","Name":"Pell City","Slug":"pell-city","Lat":"33.597889"},{"County":"Elmore County","Long":"-86.239334","Name":"Titus","Slug":"titus","Lat":"32.690019"},{"County":"Montgomery County","Long":"-86.101944","Name":"Mount Meigs","Slug":"mount-meigs","Lat":"32.3625"},{"County":"Houston County","Long":"-85.418036","Name":"Dothan","Slug":"dothan","Lat":"31.202888"},{"County":"Limestone County","Long":"-86.910452","Name":"Elkmont","Slug":"elkmont","Lat":"34.915241"},{"County":"Baldwin County","Long":"-87.76444","Name":"Bay Minette","Slug":"bay-minette","Lat":"30.86354"},{"County":"De Kalb County","Long":"-85.641577","Name":"Ider","Slug":"ider","Lat":"34.735059"},{"County":"Henry County","Long":"-85.279044","Name":"Abbeville","Slug":"abbeville","Lat":"31.575479"},{"County":"Dale County","Long":"-85.643629","Name":"Ozark","Slug":"ozark","Lat":"31.439069"},{"County":"Cleburne County","Long":"-85.588471","Name":"Heflin","Slug":"heflin","Lat":"33.611515"},{"County":"Choctaw County","Long":"-88.0931","Name":"Pennington","Slug":"pennington","Lat":"32.226245"},{"County":"Lauderdale County","Long":"-87.508185","Name":"Killen","Slug":"killen","Lat":"34.901632"},{"County":"Baldwin County","Long":"-87.712795","Name":"Gulf Shores","Slug":"gulf-shores","Lat":"30.268954"},{"County":"Lawrence County","Long":"-87.451453","Name":"Mount Hope","Slug":"mount-hope","Lat":"34.462969"},{"County":"Jefferson County","Long":"-86.598068","Name":"Trussville","Slug":"trussville","Lat":"33.633932"},{"County":"Hale County","Long":"-87.615134","Name":"Moundville","Slug":"moundville","Lat":"32.978853"},{"County":"Tuscaloosa County","Long":"-87.304722","Name":"Kellerman","Slug":"kellerman","Lat":"33.340556"},{"County":"Walker County","Long":"-87.432449","Name":"Nauvoo","Slug":"nauvoo","Lat":"33.929859"},{"County":"Marengo County","Long":"-87.699815","Name":"Magnolia","Slug":"magnolia","Lat":"32.141931"},{"County":"Dale County","Long":"-85.549578","Name":"Skipperville","Slug":"skipperville","Lat":"31.551588"},{"County":"Jefferson County","Long":"-86.768611","Name":"New Castle","Slug":"new-castle","Lat":"33.648889"},{"County":"Baldwin County","Long":"-87.58896","Name":"Elberta","Slug":"elberta","Lat":"30.394239"},{"County":"Clay County","Long":"-86.144444","Name":"Hollins","Slug":"hollins","Lat":"33.1175"},{"County":"Baldwin County","Long":"-87.785781","Name":"Magnolia Springs","Slug":"magnolia-springs","Lat":"30.394497"},{"County":"Greene County","Long":"-88.026652","Name":"Boligee","Slug":"boligee","Lat":"32.774646"},{"County":"Saint Clair County","Long":"-86.361944","Name":"Cook Springs","Slug":"cook-springs","Lat":"33.589722"},{"County":"Shelby County","Long":"-86.755987","Name":"Calera","Slug":"calera","Lat":"33.1098"},{"County":"Conecuh County","Long":"-87.026754","Name":"Castleberry","Slug":"castleberry","Lat":"31.326113"},{"County":"Blount County","Long":"-86.81767","Name":"Hayden","Slug":"hayden","Lat":"33.885806"},{"County":"Montgomery County","Long":"-86.278534","Name":"Lapine","Slug":"lapine","Lat":"31.985423"},{"County":"Coosa County","Long":"-86.240006","Name":"Rockford","Slug":"rockford","Lat":"32.877957"},{"County":"Mobile County","Long":"-88.017414","Name":"Creola","Slug":"creola","Lat":"30.901267"},{"County":"Wilcox County","Long":"-87.295049","Name":"Camden","Slug":"camden","Lat":"32.004732"},{"County":"Lawrence County","Long":"-87.314255","Name":"Courtland","Slug":"courtland","Lat":"34.671866"},{"County":"Washington County","Long":"-88.269887","Name":"Chatom","Slug":"chatom","Lat":"31.487638"},{"County":"Jackson County","Long":"-86.250068","Name":"Princeton","Slug":"princeton","Lat":"34.840217"},{"County":"Bibb County","Long":"-87.13694","Name":"West Blocton","Slug":"west-blocton","Lat":"33.142431"},{"County":"Jackson County","Long":"-85.622507","Name":"Higdon","Slug":"higdon","Lat":"34.873247"},{"County":"Greene County","Long":"-87.9925","Name":"Clinton","Slug":"clinton","Lat":"32.913611"},{"County":"Cullman County","Long":"-86.617441","Name":"Holly Pond","Slug":"holly-pond","Lat":"34.190085"},{"County":"Macon County","Long":"-85.91616","Name":"Shorter","Slug":"shorter","Lat":"32.383585"},{"County":"Clarke County","Long":"-87.763571","Name":"Grove Hill","Slug":"grove-hill","Lat":"31.675502"},{"County":"Mobile County","Long":"-88.250697","Name":"Bayou La Batre","Slug":"bayou-la-batre","Lat":"30.407983"},{"County":"Walker County","Long":"-87.0875","Name":"Burnwell","Slug":"burnwell","Lat":"33.707778"},{"County":"Perry County","Long":"-87.331437","Name":"Marion","Slug":"marion","Lat":"32.646301"},{"County":"Jackson County","Long":"-85.984648","Name":"Fackler","Slug":"fackler","Lat":"34.82589"},{"County":"Etowah County","Long":"-86.350879","Name":"Altoona","Slug":"altoona","Lat":"34.042916"},{"County":"Choctaw County","Long":"-88.458889","Name":"Melvin","Slug":"melvin","Lat":"31.930278"},{"County":"Dale County","Long":"-85.513033","Name":"Midland City","Slug":"midland-city","Lat":"31.36716"},{"County":"Lee County","Long":"-85.489001","Name":"Auburn","Slug":"auburn","Lat":"32.602043"},{"County":"Clarke County","Long":"-88.006072","Name":"Campbell","Slug":"campbell","Lat":"31.963512"},{"County":"Montgomery County","Long":"-86.041262","Name":"Mathews","Slug":"mathews","Lat":"32.128288"},{"County":"Pickens County","Long":"-88.221987","Name":"Ethelsville","Slug":"ethelsville","Lat":"33.386816"},{"County":"Baldwin County","Long":"-87.685737","Name":"Foley","Slug":"foley","Lat":"30.400664"},{"County":"Lamar County","Long":"-88.097919","Name":"Vernon","Slug":"vernon","Lat":"33.761285"},{"County":"Jackson County","Long":"-86.10563","Name":"Langston","Slug":"langston","Lat":"34.497831"},{"County":"Marshall County","Long":"-86.323611","Name":"Douglas","Slug":"douglas","Lat":"34.173611"},{"County":"De Kalb County","Long":"-85.844605","Name":"Rainsville","Slug":"rainsville","Lat":"34.498884"},{"County":"Walker County","Long":"-87.551944","Name":"Kansas","Slug":"kansas","Lat":"33.901667"},{"County":"Calhoun County","Long":"-85.810666","Name":"Weaver","Slug":"weaver","Lat":"33.756286"},{"County":"Shelby County","Long":"-86.399425","Name":"Vincent","Slug":"vincent","Lat":"33.401049"},{"County":"Franklin County","Long":"-87.959023","Name":"Hodges","Slug":"hodges","Lat":"34.341664"},{"County":"Mobile County","Long":"-88.109644","Name":"Dauphin Island","Slug":"dauphin-island","Lat":"30.252057"},{"County":"Wilcox County","Long":"-87.281389","Name":"Boykin","Slug":"boykin","Lat":"32.077778"},{"County":"Jefferson County","Long":"-86.871944","Name":"Shannon","Slug":"shannon","Lat":"33.405278"},{"County":"Covington County","Long":"-86.349722","Name":"Lockhart","Slug":"lockhart","Lat":"31.010278"},{"County":"Walker County","Long":"-87.10066","Name":"Quinton","Slug":"quinton","Lat":"33.656065"},{"County":"Baldwin County","Long":"-87.721355","Name":"Bon Secour","Slug":"bon-secour","Lat":"30.328883"},{"County":"Macon County","Long":"-85.68606","Name":"Tuskegee","Slug":"tuskegee","Lat":"32.431623"},{"County":"Jefferson County","Long":"-86.956435","Name":"Dolomite","Slug":"dolomite","Lat":"33.465424"},{"County":"Monroe County","Long":"-87.388333","Name":"Mexia","Slug":"mexia","Lat":"31.506944"},{"County":"Jefferson County","Long":"-86.931111","Name":"Docena","Slug":"docena","Lat":"33.559444"},{"County":"Monroe County","Long":"-87.428333","Name":"Megargel","Slug":"megargel","Lat":"31.379722"},{"County":"Blount County","Long":"-86.509444","Name":"Allgood","Slug":"allgood","Lat":"33.911944"},{"County":"Fayette County","Long":"-87.68965","Name":"Bankston","Slug":"bankston","Lat":"33.70083"},{"County":"Barbour County","Long":"-85.558062","Name":"Louisville","Slug":"louisville","Lat":"31.794262"},{"County":"Calhoun County","Long":"-85.751389","Name":"De Armanville","Slug":"de-armanville","Lat":"33.626389"},{"County":"Washington County","Long":"-88.32731","Name":"Deer Park","Slug":"deer-park","Lat":"31.184892"},{"County":"Conecuh County","Long":"-86.925771","Name":"Burnt Corn","Slug":"burnt-corn","Lat":"31.458009"},{"County":"Cleburne County","Long":"-85.378604","Name":"Ranburne","Slug":"ranburne","Lat":"33.561627"},{"County":"Coffee County","Long":"-85.842111","Name":"Enterprise","Slug":"enterprise","Lat":"31.340789"},{"County":"Cullman County","Long":"-87.004281","Name":"Bremen","Slug":"bremen","Lat":"33.973664"},{"County":"Bullock County","Long":"-85.888329","Name":"Fitzpatrick","Slug":"fitzpatrick","Lat":"32.151607"},{"County":"Calhoun County","Long":"-85.961111","Name":"Bynum","Slug":"bynum","Lat":"33.613056"},{"County":"Bibb County","Long":"-87.126389","Name":"Green Pond","Slug":"green-pond","Lat":"33.225"},{"County":"Shelby County","Long":"-86.491732","Name":"Sterrett","Slug":"sterrett","Lat":"33.446103"},{"County":"Marion County","Long":"-88.008521","Name":"Hamilton","Slug":"hamilton","Lat":"34.153413"},{"County":"Madison County","Long":"-86.749929","Name":"Harvest","Slug":"harvest","Lat":"34.82732"},{"County":"Mobile County","Long":"-88.182311","Name":"Eight Mile","Slug":"eight-mile","Lat":"30.795074"},{"County":"Madison County","Long":"-86.468703","Name":"Brownsboro","Slug":"brownsboro","Lat":"34.716733"},{"County":"Jefferson County","Long":"-86.656542","Name":"Pinson","Slug":"pinson","Lat":"33.708131"},{"County":"Chilton County","Long":"-86.642472","Name":"Clanton","Slug":"clanton","Lat":"32.835532"},{"County":"Mobile County","Long":"-88.035044","Name":"Mount Vernon","Slug":"mount-vernon","Lat":"31.097375"},{"County":"Walker County","Long":"-87.265773","Name":"Parrish","Slug":"parrish","Lat":"33.721307"},{"County":"Baldwin County","Long":"-87.889522","Name":"Daphne","Slug":"daphne","Lat":"30.61972"},{"County":"Cleburne County","Long":"-85.509167","Name":"Edwardsville","Slug":"edwardsville","Lat":"33.707222"},{"County":"Henry County","Long":"-85.332277","Name":"Headland","Slug":"headland","Lat":"31.353406"},{"County":"Fayette County","Long":"-87.622563","Name":"Berry","Slug":"berry","Lat":"33.694485"},{"County":"Jefferson County","Long":"-86.822481","Name":"Gardendale","Slug":"gardendale","Lat":"33.71891"},{"County":"Colbert County","Long":"-87.630443","Name":"Muscle Shoals","Slug":"muscle-shoals","Lat":"34.756136"},{"County":"Chambers County","Long":"-85.442563","Name":"Lafayette","Slug":"lafayette","Lat":"32.925237"},{"County":"Limestone County","Long":"-86.834612","Name":"Ardmore","Slug":"ardmore","Lat":"34.980447"},{"County":"Cherokee County","Long":"-85.602567","Name":"Cedar Bluff","Slug":"cedar-bluff","Lat":"34.241662"},{"County":"Shelby County","Long":"-86.862228","Name":"Montevallo","Slug":"montevallo","Lat":"33.124765"},{"County":"Baldwin County","Long":"-87.88668","Name":"Spanish Fort","Slug":"spanish-fort","Lat":"30.695852"},{"County":"Mobile County","Long":"-88.053312","Name":"Satsuma","Slug":"satsuma","Lat":"30.851628"},{"County":"Conecuh County","Long":"-87.19671","Name":"Lenox","Slug":"lenox","Lat":"31.327261"},{"County":"Russell County","Long":"-85.302882","Name":"Hatchechubbee","Slug":"hatchechubbee","Lat":"32.284531"},{"County":"Tallapoosa County","Long":"-85.753831","Name":"Daviston","Slug":"daviston","Lat":"33.033471"},{"County":"Lamar County","Long":"-88.16063","Name":"Detroit","Slug":"detroit","Lat":"34.010874"},{"County":"Talladega County","Long":"-86.2025","Name":"Sycamore","Slug":"sycamore","Lat":"33.251111"},{"County":"Fayette County","Long":"-87.931389","Name":"Belk","Slug":"belk","Lat":"33.6475"},{"County":"Washington County","Long":"-88.133185","Name":"Frankville","Slug":"frankville","Lat":"31.64684"},{"County":"Chilton County","Long":"-86.886848","Name":"Stanton","Slug":"stanton","Lat":"32.709631"},{"County":"Shelby County","Long":"-86.614132","Name":"Chelsea","Slug":"chelsea","Lat":"33.371582"},{"County":"Chambers County","Long":"-85.21608","Name":"Lanett","Slug":"lanett","Lat":"32.861609"},{"County":"Tuscaloosa County","Long":"-87.801429","Name":"Elrod","Slug":"elrod","Lat":"33.343678"},{"County":"Mobile County","Long":"-88.266705","Name":"Semmes","Slug":"semmes","Lat":"30.754408"},{"County":"Clay County","Long":"-85.710797","Name":"Cragford","Slug":"cragford","Lat":"33.217148"},{"County":"Crenshaw County","Long":"-86.256601","Name":"Luverne","Slug":"luverne","Lat":"31.70739"},{"County":"Choctaw County","Long":"-88.309149","Name":"Silas","Slug":"silas","Lat":"31.766754"},{"County":"Shelby County","Long":"-86.881667","Name":"Wilton","Slug":"wilton","Lat":"33.078611"},{"County":"Lee County","Long":"-85.358629","Name":"Opelika","Slug":"opelika","Lat":"32.627771"},{"County":"Tuscaloosa County","Long":"-87.636528","Name":"Coker","Slug":"coker","Lat":"33.252612"},{"County":"Henry County","Long":"-85.482308","Name":"Clopton","Slug":"clopton","Lat":"31.602843"},{"County":"Talladega County","Long":"-86.335556","Name":"Bon Air","Slug":"bon-air","Lat":"33.263611"},{"County":"Greene County","Long":"-88.085278","Name":"West Greene","Slug":"west-greene","Lat":"32.923611"},{"County":"Colbert County","Long":"-87.683259","Name":"Tuscumbia","Slug":"tuscumbia","Lat":"34.687432"},{"County":"Lowndes County","Long":"-86.576142","Name":"Fort Deposit","Slug":"fort-deposit","Lat":"31.995979"},{"County":"Cullman County","Long":"-87.038115","Name":"Logan","Slug":"logan","Lat":"34.184079"},{"County":"Jefferson County","Long":"-86.819849","Name":"Warrior","Slug":"warrior","Lat":"33.852862"},{"County":"Marengo County","Long":"-87.898056","Name":"Jefferson","Slug":"jefferson","Lat":"32.386667"},{"County":"Covington County","Long":"-86.539167","Name":"River Falls","Slug":"river-falls","Lat":"31.352778"},{"County":"Wilcox County","Long":"-86.966944","Name":"Furman","Slug":"furman","Lat":"32.006667"},{"County":"Bibb County","Long":"-86.90701","Name":"Randolph","Slug":"randolph","Lat":"32.888834"},{"County":"Coosa County","Long":"-86.105064","Name":"Equality","Slug":"equality","Lat":"32.813908"},{"County":"Bibb County","Long":"-87.163469","Name":"Woodstock","Slug":"woodstock","Lat":"33.169808"},{"County":"Tallapoosa County","Long":"-85.64738","Name":"Camp Hill","Slug":"camp-hill","Lat":"32.782749"},{"County":"Mobile County","Long":"-88.180748","Name":"Theodore","Slug":"theodore","Lat":"30.544374"},{"County":"Sumter County","Long":"-88.173592","Name":"Livingston","Slug":"livingston","Lat":"32.588509"},{"County":"Limestone County","Long":"-86.880278","Name":"Mooresville","Slug":"mooresville","Lat":"34.628333"},{"County":"Clarke County","Long":"-87.837793","Name":"Carlton","Slug":"carlton","Lat":"31.322449"},{"County":"Escambia County","Long":"-87.067325","Name":"Brewton","Slug":"brewton","Lat":"31.118926"},{"County":"Tuscaloosa County","Long":"-87.423611","Name":"Peterson","Slug":"peterson","Lat":"33.2325"},{"County":"Macon County","Long":"-85.700688","Name":"Fort Davis","Slug":"fort-davis","Lat":"32.28945"},{"County":"Hale County","Long":"-87.708558","Name":"Akron","Slug":"akron","Lat":"32.872354"},{"County":"Dallas County","Long":"-87.369345","Name":"Safford","Slug":"safford","Lat":"32.300242"},{"County":"Crenshaw County","Long":"-86.398064","Name":"Honoraville","Slug":"honoraville","Lat":"31.878397"},{"County":"Greene County","Long":"-87.930297","Name":"Eutaw","Slug":"eutaw","Lat":"32.888871"},{"County":"Cullman County","Long":"-86.621299","Name":"Baileyton","Slug":"baileyton","Lat":"34.268298"},{"County":"Shelby County","Long":"-86.806176","Name":"Pelham","Slug":"pelham","Lat":"33.31046"},{"County":"Coffee County","Long":"-85.940386","Name":"New Brockton","Slug":"new-brockton","Lat":"31.36898"},{"County":"Crenshaw County","Long":"-86.366315","Name":"Dozier","Slug":"dozier","Lat":"31.506614"},{"County":"Jefferson County","Long":"-86.813614","Name":"Fultondale","Slug":"fultondale","Lat":"33.611283"},{"County":"Russell County","Long":"-85.021667","Name":"Fort Mitchell","Slug":"fort-mitchell","Lat":"32.341389"},{"County":"Washington County","Long":"-88.355872","Name":"Millry","Slug":"millry","Lat":"31.626871"},{"County":"Lee County","Long":"-85.593333","Name":"Loachapoka","Slug":"loachapoka","Lat":"32.604167"},{"County":"Marshall County","Long":"-86.259041","Name":"Grant","Slug":"grant","Lat":"34.495902"},{"County":"Washington County","Long":"-88.0075","Name":"Malcolm","Slug":"malcolm","Lat":"31.191111"},{"County":"Jackson County","Long":"-86.332562","Name":"Paint Rock","Slug":"paint-rock","Lat":"34.667122"},{"County":"Montgomery County","Long":"-86.246329","Name":"Ramer","Slug":"ramer","Lat":"32.067745"},{"County":"Elmore County","Long":"-86.338211","Name":"Deatsville","Slug":"deatsville","Lat":"32.613405"},{"County":"Geneva County","Long":"-85.745634","Name":"Black","Slug":"black","Lat":"31.01318"},{"County":"Washington County","Long":"-88.031111","Name":"Calvert","Slug":"calvert","Lat":"31.160556"},{"County":"Lawrence County","Long":"-87.222385","Name":"Moulton","Slug":"moulton","Lat":"34.505836"},{"County":"Jackson County","Long":"-85.953173","Name":"Hollywood","Slug":"hollywood","Lat":"34.730428"},{"County":"Marion County","Long":"-87.860762","Name":"Hackleburg","Slug":"hackleburg","Lat":"34.267803"},{"County":"Monroe County","Long":"-87.570518","Name":"Uriah","Slug":"uriah","Lat":"31.313467"},{"County":"Tallapoosa County","Long":"-85.808056","Name":"East Tallassee","Slug":"east-tallassee","Lat":"32.607222"},{"County":"Marengo County","Long":"-87.922755","Name":"Sweet Water","Slug":"sweet-water","Lat":"32.077272"},{"County":"Jefferson County","Long":"-86.772551","Name":"Morris","Slug":"morris","Lat":"33.739172"},{"County":"Cherokee County","Long":"-85.77051","Name":"Leesburg","Slug":"leesburg","Lat":"34.191083"},{"County":"Walker County","Long":"-87.437248","Name":"Townley","Slug":"townley","Lat":"33.84702"},{"County":"Limestone County","Long":"-86.792778","Name":"Capshaw","Slug":"capshaw","Lat":"34.773056"},{"County":"Elmore County","Long":"-86.364125","Name":"Millbrook","Slug":"millbrook","Lat":"32.499485"},{"County":"Montgomery County","Long":"-86.011241","Name":"Cecil","Slug":"cecil","Lat":"32.300891"},{"County":"Limestone County","Long":"-86.8056","Name":"Madison","Slug":"madison","Lat":"34.6578"},{"County":"Franklin County","Long":"-87.725726","Name":"Russellville","Slug":"russellville","Lat":"34.506568"},{"County":"Washington County","Long":"-88.266828","Name":"Tibbie","Slug":"tibbie","Lat":"31.373742"},{"County":"Coosa County","Long":"-86.304203","Name":"Weogufka","Slug":"weogufka","Lat":"33.02381"},{"County":"Autauga County","Long":"-86.716301","Name":"Billingsley","Slug":"billingsley","Lat":"32.610578"},{"County":"Marengo County","Long":"-87.597438","Name":"Thomaston","Slug":"thomaston","Lat":"32.253776"},{"County":"Wilcox County","Long":"-87.088333","Name":"Mc Williams","Slug":"mc-williams","Lat":"31.845556"},{"County":"Blount County","Long":"-86.559355","Name":"Cleveland","Slug":"cleveland","Lat":"33.992106"},{"County":"Chilton County","Long":"-86.746724","Name":"Thorsby","Slug":"thorsby","Lat":"32.923755"},{"County":"Montgomery County","Long":"-86.393189","Name":"Hope Hull","Slug":"hope-hull","Lat":"32.224256"},{"County":"Jefferson County","Long":"-86.879444","Name":"Watson","Slug":"watson","Lat":"33.633611"},{"County":"Cherokee County","Long":"-85.609229","Name":"Centre","Slug":"centre","Lat":"34.111592"},{"County":"Lamar County","Long":"-88.05172","Name":"Kennedy","Slug":"kennedy","Lat":"33.574964"},{"County":"Baldwin County","Long":"-87.555888","Name":"Orange Beach","Slug":"orange-beach","Lat":"30.290596"},{"County":"Autauga County","Long":"-86.571944","Name":"Booth","Slug":"booth","Lat":"32.500278"},{"County":"Saint Clair County","Long":"-86.198341","Name":"Riverside","Slug":"riverside","Lat":"33.608832"},{"County":"Escambia County","Long":"-87.461944","Name":"Huxford","Slug":"huxford","Lat":"31.22"},{"County":"Lauderdale County","Long":"-87.393519","Name":"Lexington","Slug":"lexington","Lat":"34.955924"},{"County":"Crenshaw County","Long":"-86.274343","Name":"Brantley","Slug":"brantley","Lat":"31.570963"},{"County":"Calhoun County","Long":"-85.83347","Name":"Oxford","Slug":"oxford","Lat":"33.596829"},{"County":"Madison County","Long":"-86.3961","Name":"New Hope","Slug":"new-hope","Lat":"34.549445"},{"County":"Montgomery County","Long":"-86.3118","Name":"Montgomery","Slug":"montgomery","Lat":"32.3743"},{"County":"Jackson County","Long":"-85.994002","Name":"Section","Slug":"section","Lat":"34.543275"},{"County":"Blount County","Long":"-86.641662","Name":"Remlap","Slug":"remlap","Lat":"33.846204"},{"County":"Chambers County","Long":"-85.174911","Name":"Valley","Slug":"valley","Lat":"32.811349"},{"County":"Pickens County","Long":"-88.143333","Name":"Mc Shan","Slug":"mc-shan","Lat":"33.381667"},{"County":"Pike County","Long":"-85.9993","Name":"Troy","Slug":"troy","Lat":"31.7567"},{"County":"Saint Clair County","Long":"-86.475","Name":"Margaret","Slug":"margaret","Lat":"33.686111"},{"County":"Geneva County","Long":"-85.719204","Name":"Hartford","Slug":"hartford","Lat":"31.08598"},{"County":"Jefferson County","Long":"-87.040148","Name":"Dora","Slug":"dora","Lat":"33.734947"},{"County":"Mobile County","Long":"-88.0434","Name":"Mobile","Slug":"mobile","Lat":"30.6959"},{"County":"Coffee County","Long":"-86.069532","Name":"Kinston","Slug":"kinston","Lat":"31.262118"},{"County":"Morgan County","Long":"-87.053187","Name":"Danville","Slug":"danville","Lat":"34.452189"},{"County":"Russell County","Long":"-85.395903","Name":"Hurtsboro","Slug":"hurtsboro","Lat":"32.245429"},{"County":"Dale County","Long":"-85.721374","Name":"Fort Rucker","Slug":"fort-rucker","Lat":"31.348011"},{"County":"Calhoun County","Long":"-85.96075","Name":"Eastaboga","Slug":"eastaboga","Lat":"33.603132"},{"County":"Chambers County","Long":"-85.324264","Name":"Five Points","Slug":"five-points","Lat":"33.042408"},{"County":"Baldwin County","Long":"-87.745676","Name":"Silverhill","Slug":"silverhill","Lat":"30.522237"},{"County":"Tuscaloosa County","Long":"-87.5872","Name":"Northport","Slug":"northport","Lat":"33.2605"},{"County":"Calhoun County","Long":"-85.645997","Name":"Piedmont","Slug":"piedmont","Lat":"33.838946"},{"County":"Sumter County","Long":"-88.161443","Name":"Epes","Slug":"epes","Lat":"32.763371"},{"County":"Madison County","Long":"-86.593484","Name":"Hazel Green","Slug":"hazel-green","Lat":"34.949627"},{"County":"Elmore County","Long":"-86.031614","Name":"Eclectic","Slug":"eclectic","Lat":"32.65419"},{"County":"Jefferson County","Long":"-86.976586","Name":"Pleasant Grove","Slug":"pleasant-grove","Lat":"33.488336"},{"County":"Walker County","Long":"-87.231667","Name":"Goodsprings","Slug":"goodsprings","Lat":"33.668889"},{"County":"Houston County","Long":"-85.238549","Name":"Pansey","Slug":"pansey","Lat":"31.131778"},{"County":"Clarke County","Long":"-87.682176","Name":"Gainestown","Slug":"gainestown","Lat":"31.425822"},{"County":"Covington County","Long":"-86.338528","Name":"Florala","Slug":"florala","Lat":"31.017194"},{"County":"Jackson County","Long":"-85.850803","Name":"Stevenson","Slug":"stevenson","Lat":"34.876885"},{"County":"Madison County","Long":"-86.578879","Name":"Meridianville","Slug":"meridianville","Lat":"34.861779"},{"County":"Clarke County","Long":"-88.071542","Name":"Coffeeville","Slug":"coffeeville","Lat":"31.78428"},{"County":"Shelby County","Long":"-86.816389","Name":"Siluria","Slug":"siluria","Lat":"33.244167"},{"County":"Baldwin County","Long":"-87.754796","Name":"Little River","Slug":"little-river","Lat":"31.22459"},{"County":"Cullman County","Long":"-86.829777","Name":"Cullman","Slug":"cullman","Lat":"34.176146"},{"County":"Choctaw County","Long":"-88.233356","Name":"Jachin","Slug":"jachin","Lat":"32.244174"},{"County":"Coffee County","Long":"-86.043083","Name":"Jack","Slug":"jack","Lat":"31.552392"},{"County":"Sumter County","Long":"-88.268304","Name":"York","Slug":"york","Lat":"32.472765"},{"County":"Lamar County","Long":"-88.150774","Name":"Sulligent","Slug":"sulligent","Lat":"33.8549"},{"County":"Clarke County","Long":"-87.753889","Name":"Alma","Slug":"alma","Lat":"31.463889"},{"County":"Shelby County","Long":"-86.553606","Name":"Shelby","Slug":"shelby","Lat":"33.078483"},{"County":"Walker County","Long":"-87.540328","Name":"Carbon Hill","Slug":"carbon-hill","Lat":"33.909252"},{"County":"Jackson County","Long":"-85.906729","Name":"Dutton","Slug":"dutton","Lat":"34.604558"},{"County":"Choctaw County","Long":"-88.323419","Name":"Lisman","Slug":"lisman","Lat":"32.217722"},{"County":"Washington County","Long":"-88.008333","Name":"Sunflower","Slug":"sunflower","Lat":"31.382222"},{"County":"Saint Clair County","Long":"-86.439407","Name":"Springville","Slug":"springville","Lat":"33.738647"},{"County":"Houston County","Long":"-85.304722","Name":"Cowarts","Slug":"cowarts","Lat":"31.2"},{"County":"Winston County","Long":"-87.194766","Name":"Addison","Slug":"addison","Lat":"34.205571"},{"County":"Cherokee County","Long":"-85.553889","Name":"Spring Garden","Slug":"spring-garden","Lat":"33.972778"},{"County":"Clarke County","Long":"-87.656502","Name":"Whatley","Slug":"whatley","Lat":"31.639453"},{"County":"Wilcox County","Long":"-87.483623","Name":"Catherine","Slug":"catherine","Lat":"32.182"},{"County":"Pickens County","Long":"-88.132122","Name":"Carrollton","Slug":"carrollton","Lat":"33.248506"},{"County":"Marshall County","Long":"-86.462793","Name":"Union Grove","Slug":"union-grove","Lat":"34.409345"},{"County":"Butler County","Long":"-86.712222","Name":"Chapman","Slug":"chapman","Lat":"31.671111"},{"County":"Marengo County","Long":"-87.618079","Name":"Faunsdale","Slug":"faunsdale","Lat":"32.423259"},{"County":"Cullman County","Long":"-87.048395","Name":"Crane Hill","Slug":"crane-hill","Lat":"34.082117"},{"County":"Covington County","Long":"-86.61209","Name":"Red Level","Slug":"red-level","Lat":"31.439931"},{"County":"De Kalb County","Long":"-86.030575","Name":"Crossville","Slug":"crossville","Lat":"34.258784"},{"County":"Jefferson County","Long":"-87.102379","Name":"Mc Calla","Slug":"mc-calla","Lat":"33.284546"},{"County":"Mobile County","Long":"-88.024167","Name":"Bucks","Slug":"bucks","Lat":"31.010278"},{"County":"Walker County","Long":"-87.249144","Name":"Jasper","Slug":"jasper","Lat":"33.871672"},{"County":"Limestone County","Long":"-86.989152","Name":"Tanner","Slug":"tanner","Lat":"34.713037"},{"County":"Choctaw County","Long":"-88.31794","Name":"Toxey","Slug":"toxey","Lat":"31.93153"},{"County":"Madison County","Long":"-86.480833","Name":"Ryland","Slug":"ryland","Lat":"34.769722"},{"County":"Crenshaw County","Long":"-86.170972","Name":"Glenwood","Slug":"glenwood","Lat":"31.664143"},{"County":"Hale County","Long":"-87.740201","Name":"Sawyerville","Slug":"sawyerville","Lat":"32.757796"},{"County":"Fayette County","Long":"-87.730278","Name":"Glen Allen","Slug":"glen-allen","Lat":"33.899444"},{"County":"Conecuh County","Long":"-87.319739","Name":"Range","Slug":"range","Lat":"31.30169"},{"County":"Wilcox County","Long":"-87.568224","Name":"Lower Peach Tree","Slug":"lower-peach-tree","Lat":"31.850365"},{"County":"Choctaw County","Long":"-88.297114","Name":"Ward","Slug":"ward","Lat":"32.334063"},{"County":"Baldwin County","Long":"-87.75624","Name":"Loxley","Slug":"loxley","Lat":"30.617964"},{"County":"Marengo County","Long":"-87.839669","Name":"Demopolis","Slug":"demopolis","Lat":"32.490792"},{"County":"Mobile County","Long":"-88.32825","Name":"Grand Bay","Slug":"grand-bay","Lat":"30.498288"},{"County":"Winston County","Long":"-87.593811","Name":"Haleyville","Slug":"haleyville","Lat":"34.231423"},{"County":"Clay County","Long":"-85.734609","Name":"Lineville","Slug":"lineville","Lat":"33.328613"},{"County":"Lee County","Long":"-85.4882","Name":"Auburn University","Slug":"auburn-university","Lat":"32.601"},{"County":"Dallas County","Long":"-87.221368","Name":"Orrville","Slug":"orrville","Lat":"32.294859"},{"County":"Autauga County","Long":"-86.714938","Name":"Autaugaville","Slug":"autaugaville","Lat":"32.462462"},{"County":"Jackson County","Long":"-85.708372","Name":"Flat Rock","Slug":"flat-rock","Lat":"34.807598"},{"County":"Blount County","Long":"-86.615278","Name":"Locust Fork","Slug":"locust-fork","Lat":"33.9075"},{"County":"Baldwin County","Long":"-87.465938","Name":"Seminole","Slug":"seminole","Lat":"30.504806"},{"County":"Etowah County","Long":"-86.306389","Name":"Walnut Grove","Slug":"walnut-grove","Lat":"34.065556"},{"County":"Jefferson County","Long":"-86.959727","Name":"Adamsville","Slug":"adamsville","Lat":"33.588437"},{"County":"Pickens County","Long":"-88.020277","Name":"Reform","Slug":"reform","Lat":"33.395945"},{"County":"Henry County","Long":"-85.14584","Name":"Shorterville","Slug":"shorterville","Lat":"31.625627"},{"County":"Monroe County","Long":"-87.425833","Name":"Goodway","Slug":"goodway","Lat":"31.336667"},{"County":"Lowndes County","Long":"-86.654994","Name":"Hayneville","Slug":"hayneville","Lat":"32.195707"},{"County":"Cullman County","Long":"-86.551939","Name":"Joppa","Slug":"joppa","Lat":"34.283739"},{"County":"Etowah County","Long":"-86.234606","Name":"Gallant","Slug":"gallant","Lat":"33.997586"},{"County":"Jefferson County","Long":"-86.6375","Name":"Alton","Slug":"alton","Lat":"33.579167"},{"County":"Lee County","Long":"-85.183966","Name":"Salem","Slug":"salem","Lat":"32.621157"},{"County":"Baldwin County","Long":"-87.637268","Name":"Robertsdale","Slug":"robertsdale","Lat":"30.561608"},{"County":"Choctaw County","Long":"-88.345798","Name":"Needham","Slug":"needham","Lat":"32.012165"},{"County":"Autauga County","Long":"-86.510138","Name":"Marbury","Slug":"marbury","Lat":"32.639373"},{"County":"De Kalb County","Long":"-85.792128","Name":"Sylvania","Slug":"sylvania","Lat":"34.558962"},{"County":"Shelby County","Long":"-86.791944","Name":"Saginaw","Slug":"saginaw","Lat":"33.216111"},{"County":"Marion County","Long":"-87.79716","Name":"Winfield","Slug":"winfield","Lat":"33.930256"},{"County":"Washington County","Long":"-88.386466","Name":"Vinegar Bend","Slug":"vinegar-bend","Lat":"31.25841"},{"County":"Pike County","Long":"-85.817668","Name":"Brundidge","Slug":"brundidge","Lat":"31.701324"},{"County":"Lamar County","Long":"-88.01567","Name":"Beaverton","Slug":"beaverton","Lat":"33.942877"},{"County":"Lowndes County","Long":"-86.859867","Name":"Tyler","Slug":"tyler","Lat":"32.281924"},{"County":"Montgomery County","Long":"-86.059722","Name":"Pine Level","Slug":"pine-level","Lat":"32.067778"},{"County":"Calhoun County","Long":"-85.915325","Name":"Wellington","Slug":"wellington","Lat":"33.863843"},{"County":"Washington County","Long":"-88.051102","Name":"Mc Intosh","Slug":"mc-intosh","Lat":"31.236108"},{"County":"Jefferson County","Long":"-86.646111","Name":"Palmerdale","Slug":"palmerdale","Lat":"33.738611"},{"County":"Marengo County","Long":"-87.988056","Name":"Nanafalia","Slug":"nanafalia","Lat":"32.112778"},{"County":"Shelby County","Long":"-86.872745","Name":"Maylene","Slug":"maylene","Lat":"33.231694"},{"County":"Morgan County","Long":"-86.913086","Name":"Falkville","Slug":"falkville","Lat":"34.347653"},{"County":"Mobile County","Long":"-88.04274","Name":"Axis","Slug":"axis","Lat":"31.006817"},{"County":"Blount County","Long":"-86.474118","Name":"Oneonta","Slug":"oneonta","Lat":"33.925858"},{"County":"Saint Clair County","Long":"-86.408952","Name":"Odenville","Slug":"odenville","Lat":"33.675611"},{"County":"Jefferson County","Long":"-86.916667","Name":"Brookside","Slug":"brookside","Lat":"33.637778"},{"County":"Tuscaloosa County","Long":"-87.718886","Name":"Buhl","Slug":"buhl","Lat":"33.249448"},{"County":"Marengo County","Long":"-87.949722","Name":"Myrtlewood","Slug":"myrtlewood","Lat":"32.250278"},{"County":"Morgan County","Long":"-86.800931","Name":"Somerville","Slug":"somerville","Lat":"34.499548"},{"County":"Baldwin County","Long":"-87.919167","Name":"Point Clear","Slug":"point-clear","Lat":"30.473889"},{"County":"Morgan County","Long":"-86.924235","Name":"Hartselle","Slug":"hartselle","Lat":"34.448206"},{"County":"Saint Clair County","Long":"-86.255167","Name":"Ashville","Slug":"ashville","Lat":"33.837366"},{"County":"Barbour County","Long":"-85.450932","Name":"Clayton","Slug":"clayton","Lat":"31.887413"},{"County":"Franklin County","Long":"-88.077422","Name":"Vina","Slug":"vina","Lat":"34.37116"},{"County":"Walker County","Long":"-87.086111","Name":"Sipsey","Slug":"sipsey","Lat":"33.824722"},{"County":"Madison County","Long":"-86.466577","Name":"Owens Cross Roads","Slug":"owens-cross-roads","Lat":"34.612859"},{"County":"Perry County","Long":"-87.493398","Name":"Uniontown","Slug":"uniontown","Lat":"32.446966"},{"County":"Clarke County","Long":"-87.972897","Name":"Morvin","Slug":"morvin","Lat":"31.967305"},{"County":"Dallas County","Long":"-87.024527","Name":"Selma","Slug":"selma","Lat":"32.419719"},{"County":"Tuscaloosa County","Long":"-87.257362","Name":"Vance","Slug":"vance","Lat":"33.17498"},{"County":"Monroe County","Long":"-87.493333","Name":"Perdue Hill","Slug":"perdue-hill","Lat":"31.513889"},{"County":"Bullock County","Long":"-85.678746","Name":"Union Springs","Slug":"union-springs","Lat":"32.166252"},{"County":"Clay County","Long":"-85.679279","Name":"Delta","Slug":"delta","Lat":"33.457303"},{"County":"Hale County","Long":"-87.590494","Name":"Greensboro","Slug":"greensboro","Lat":"32.716721"},{"County":"Winston County","Long":"-87.605833","Name":"Delmar","Slug":"delmar","Lat":"34.17"},{"County":"Tuscaloosa County","Long":"-87.605278","Name":"Samantha","Slug":"samantha","Lat":"33.422222"},{"County":"Wilcox County","Long":"-87.392558","Name":"Coy","Slug":"coy","Lat":"31.888851"},{"County":"Jackson County","Long":"-86.171571","Name":"Estillfork","Slug":"estillfork","Lat":"34.913017"},{"County":"Macon County","Long":"-85.68707","Name":"Notasulga","Slug":"notasulga","Lat":"32.543727"},{"County":"Geneva County","Long":"-85.582954","Name":"Slocomb","Slug":"slocomb","Lat":"31.095558"},{"County":"Wilcox County","Long":"-87.577086","Name":"Pine Hill","Slug":"pine-hill","Lat":"31.973546"},{"County":"Limestone County","Long":"-86.970733","Name":"Athens","Slug":"athens","Lat":"34.803604"},{"County":"Tallapoosa County","Long":"-85.951086","Name":"Alexander City","Slug":"alexander-city","Lat":"32.941445"},{"County":"De Kalb County","Long":"-85.861969","Name":"Collinsville","Slug":"collinsville","Lat":"34.267957"},{"County":"Etowah County","Long":"-86.121111","Name":"Boaz","Slug":"boaz","Lat":"34.173889"},{"County":"Cullman County","Long":"-86.746944","Name":"Garden City","Slug":"garden-city","Lat":"34.014444"},{"County":"Walker County","Long":"-87.016139","Name":"Empire","Slug":"empire","Lat":"33.825589"},{"County":"Dallas County","Long":"-87.270181","Name":"Marion Junction","Slug":"marion-junction","Lat":"32.426589"},{"County":"Coosa County","Long":"-86.048397","Name":"Kellyton","Slug":"kellyton","Lat":"32.979068"},{"County":"Saint Clair County","Long":"-86.279722","Name":"Wattsville","Slug":"wattsville","Lat":"33.681389"},{"County":"Calhoun County","Long":"-86.025357","Name":"Ohatchee","Slug":"ohatchee","Lat":"33.778779"},{"County":"Cherokee County","Long":"-85.558893","Name":"Gaylesville","Slug":"gaylesville","Lat":"34.357324"},{"County":"Tuscaloosa County","Long":"-87.387051","Name":"Cottondale","Slug":"cottondale","Lat":"33.176667"}]